time(millisecond),datetime(utc),latitude,longitude,height_above_takeoff(feet),height_above_ground_at_drone_location(feet),ground_elevation_at_drone_location(feet),altitude_above_seaLevel(feet),height_sonar(feet),speed(mph),distance(feet),mileage(feet),satellites,gpslevel,voltage(v),max_altitude(feet),max_ascent(feet),max_speed(mph),max_distance(feet), xSpeed(mph), ySpeed(mph), zSpeed(mph), compass_heading(degrees), pitch(degrees), roll(degrees),isPhoto,isVideo,rc_elevator,rc_aileron,rc_throttle,rc_rudder,rc_elevator(percent),rc_aileron(percent),rc_throttle(percent),rc_rudder(percent),gimbal_heading(degrees),gimbal_pitch(degrees),gimbal_roll(degrees),battery_percent,voltageCell1,voltageCell2,voltageCell3,voltageCell4,voltageCell5,voltageCell6,current(A),battery_temperature(f),altitude(feet),ascent(feet),flycStateRaw,flycState,message
0,2023-07-20 17:04:22,0,0,0,Available with any HD 360 subscription,Available with any HD 360 subscription,7928.3308829717,4.593176,0,0,0,0,0,0,7928.3308829717,0,0,0,0,0,0,338.3, 3.3, 0.8,0,0,1024,1024,1024,1024,0,0,0,0,348.9,4.6,0,27,3.537,3.535,3.534,0,0,0,0,73.22,7928.3308829717,0,41,Motors_Started,
100,2023-07-20 17:04:22,0,0,0,,,7928.3308829717,4.593176,0,0,0,0,0,0,7928.3308829717,0,0,0,0,0,0,335.8, 4.7, 1.3,0,0,1024,1024,1024,1024,0,0,0,0,349.2,4.6,0,27,3.537,3.535,3.534,0,0,0,0,73.22,7928.3308829717,0,41,Motors_Started,"Remote ID functionality normal (Code: 30331)"
200,2023-07-20 17:04:22,0,0,0,,,7928.3308829717,4.593176,0,0,0,0,0,0,7928.3308829717,0,0,0,0,0,0,336.5, 4.3, 0.7,0,0,1024,1024,1024,1024,0,0,0,0,349.1,4.6,0,27,3.537,3.535,3.534,0,0,0,0,73.22,7928.3308829717,0,41,Motors_Started,
300,2023-07-20 17:04:22,0,0,0,,,7928.3308829717,4.593176,0,0,0,0,0,0,7928.3308829717,0,0,0,0,0,0,336.5, 3.2, 0.6,0,0,1024,1024,1024,1024,0,0,0,0,349,4.6,0,27,3.537,3.535,3.534,0,0,0,0,73.22,7928.3308829717,0,41,Motors_Started,
400,2023-07-20 17:04:23,0,0,0,,,7928.3308829717,4.593176,0,0,0,0,0,0,7928.3308829717,0,0,0,0,0,0,334.6, 3.8, 1.2,0,0,1024,1024,1024,1024,0,0,0,0,349,4.6,0,27,3.537,3.535,3.534,0,0,0,0,73.22,7928.3308829717,0,41,Motors_Started,
500,2023-07-20 17:04:23,0,0,0,,,7928.3308829717,4.593176,0.223694,0,0,0,0,0,7928.3308829717,0,0,0,0.223694,0,-0.223694,333.2, 4.2, 0.5,0,0,1024,1024,1024,1024,0,0,0,0,348.6,4.6,0,27,3.537,3.535,3.534,0,0,0,0,73.22,7928.3308829717,0,41,Motors_Started,
600,2023-07-20 17:04:23,0,0,0,,,7928.3308829717,4.593176,0.223694,0,0,0,0,0,7928.3308829717,0,0,0,0.223694,0,-0.223694,332.4, 3.3, 0.5,0,0,1024,1024,1024,1024,0,0,0,0,348.2,4.6,0,27,3.537,3.535,3.534,0,0,0,0,73.22,7928.3308829717,0,41,Motors_Started,
700,2023-07-20 17:04:23,0,0,0,,,7928.3308829717,4.593176,0,0,0,0,0,0,7928.3308829717,0,0,0,0,0,-0.223694,331.3, 3.6, -0.7,0,0,1024,1024,1024,1024,0,0,0,0,347.7,4.6,0,27,3.537,3.535,3.534,0,0,0,0,73.22,7928.3308829717,0,41,Motors_Started,
800,2023-07-20 17:04:23,0,0,0,,,7928.3308829717,4.593176,0,0,0,0,0,0,7928.3308829717,0,0,0,0,0,0,331.4, 4.4, -1.2,0,0,1024,1024,1024,1024,0,0,0,0,347,4.6,0,27,3.537,3.535,3.534,0,0,0,0,73.22,7928.3308829717,0,41,Motors_Started,
900,2023-07-20 17:04:23,0,0,0,,,7928.3308829717,4.593176,0,0,0,0,0,0,7928.3308829717,0,0,0,0,0,0,331.9, 3.4, -1.3,0,0,1024,1024,1024,1024,0,0,0,0,346.5,4.6,0,27,3.537,3.535,3.534,0,0,0,0,73.22,7928.3308829717,0,41,Motors_Started,"Setting new Return-To-Home altitude to 115m (377 ft). Data Recorder File Index is 1. Setting new Maximum Flight Altitude to 30m (98 ft)"
1000,2023-07-20 17:04:23,0,0,0,,,7928.3308829717,4.593176,0,0,0,0,0,0,7928.3308829717,0,0,0,0,0,0,332.4, 3.8, -1.5,0,0,1024,1024,1024,1024,0,0,0,0,346.2,4.6,0,27,3.537,3.535,3.534,0,0,0,0,73.22,7928.3308829717,0,41,Motors_Started,
1100,2023-07-20 17:04:23,0,0,0,,,7928.3308829717,4.593176,0,0,0,0,0,10.609,7928.3308829717,0,0,0,0,0,0,331.6, 3.7, -1.9,0,0,1024,1024,1024,1024,0,0,0,0,346,4.6,0,27,3.537,3.535,3.534,0,0,0,3.403,73.22,7928.3308829717,0,41,Motors_Started,
1200,2023-07-20 17:04:23,0,0,0,,,7928.3308829717,4.593176,0,0,0,0,0,10.609,7928.3308829717,0,0,0,0,0,0,332.5, 2.3, -3,0,0,1024,1024,1024,1024,0,0,0,0,345.7,4.6,0,27,3.537,3.535,3.534,0,0,0,3.403,73.22,7928.3308829717,0,41,Motors_Started,
1300,2023-07-20 17:04:23,0,0,0,,,7928.3308829717,4.593176,0,0,0,0,0,10.609,7928.3308829717,0,0,0,0,0,0,332.4, 2, -2.5,0,0,1024,1024,1024,1024,0,0,0,0,345.6,4.6,0,27,3.537,3.535,3.534,0,0,0,3.403,73.22,7928.3308829717,0,41,Motors_Started,
1400,2023-07-20 17:04:24,0,0,0.328084,,,7928.6589669717,4.593176,0,0,0,0,0,10.609,7928.6589669717,0.328084,0,0,0,0,0,331.3, 4.1, 0.2,0,0,1024,1024,1024,1024,0,0,0,0,345.4,4.6,0,27,3.537,3.535,3.534,0,0,0,3.403,73.22,7928.6589669717,0.328084,41,Motors_Started,
1500,2023-07-20 17:04:24,0,0,0.328084,,,7928.6589669717,4.593176,0,0,0,0,0,10.609,7928.6589669717,0.328084,0,0,0,0,0,331.7, 4.4, 0.6,0,0,1024,1024,1024,1024,0,0,0,0,345.2,4.6,0,27,3.537,3.535,3.534,0,0,0,3.403,73.22,7928.6589669717,0.328084,11,AutoTakeoff,
1600,2023-07-20 17:04:24,0,0,0.328084,,,7928.6589669717,4.593176,0,0,0,0,0,10.609,7928.6589669717,0.328084,0,0,0,0,0,333, 2.4, 0.2,0,0,1024,1024,1024,1024,0,0,0,0,345,4.6,0,27,3.537,3.535,3.534,0,0,0,3.403,73.22,7928.6589669717,0.328084,11,AutoTakeoff,
1700,2023-07-20 17:04:24,0,0,0.328084,,,7928.6589669717,4.593176,0,0,0,0,0,10.609,7928.6589669717,0.328084,0,0,0,0,0,333.1, 2.5, -0.1,0,0,1024,1024,1024,1024,0,0,0,0,345,4.6,0,27,3.537,3.535,3.534,0,0,0,3.403,73.22,7928.6589669717,0.328084,11,AutoTakeoff,
1800,2023-07-20 17:04:24,0,0,0.328084,,,7928.6589669717,4.593176,0,0,0,0,0,10.609,7928.6589669717,0.328084,0,0,0,0,0,332.2, 2.4, -0.4,0,0,1024,1024,1024,1024,0,0,0,0,345,4.6,0,27,3.537,3.535,3.534,0,0,0,3.403,73.22,7928.6589669717,0.328084,11,AutoTakeoff,
1900,2023-07-20 17:04:24,0,0,0.328084,,,7928.6589669717,4.593176,0,0,0,0,0,10.609,7928.6589669717,0.328084,0,0,0,0,0,332.7, 2.8, -0.1,0,0,1024,1024,1024,1024,0,0,0,0,344.9,4.6,0,27,3.537,3.535,3.534,0,0,0,3.403,73.22,7928.6589669717,0.328084,11,AutoTakeoff,
2000,2023-07-20 17:04:24,0,0,0.328084,,,7928.6589669717,4.593176,0,0,0,0,0,10.609,7928.6589669717,0.328084,0,0,0,0,0,332.6, 2.3, 0.4,0,0,1024,1024,1024,1024,0,0,0,0,344.9,4.6,0,27,3.537,3.535,3.534,0,0,0,3.403,73.22,7928.6589669717,0.328084,11,AutoTakeoff,
2100,2023-07-20 17:04:24,0,0,0.328084,,,7928.6589669717,4.593176,0,0,0,0,0,10.62,7928.6589669717,0.328084,0,0,0,0,0,332.6, 2.6, 0.1,0,0,1024,1024,1024,1024,0,0,0,0,344.8,4.6,0,27,3.544,3.541,3.541,0,0,0,3.98,73.22,7928.6589669717,0.328084,11,AutoTakeoff,
2200,2023-07-20 17:04:24,0,0,0.328084,,,7928.6589669717,4.593176,0,0,0,0,0,10.62,7928.6589669717,0.328084,0,0,0,0,0,333, 2.8, 0.1,0,0,1024,1024,1024,1024,0,0,0,0,344.8,4.6,0,27,3.544,3.541,3.541,0,0,0,3.98,73.22,7928.6589669717,0.328084,11,AutoTakeoff,
2300,2023-07-20 17:04:24,0,0,0.328084,,,7928.6589669717,4.593176,0,0,0,0,0,10.62,7928.6589669717,0.328084,0,0,0,0,0,333.4, 2.4, 0.3,0,0,1024,1024,1024,1024,0,0,0,0,344.8,4.6,0,27,3.544,3.541,3.541,0,0,0,3.98,73.22,7928.6589669717,0.328084,11,AutoTakeoff,
2400,2023-07-20 17:04:25,0,0,0.328084,,,7928.6589669717,4.593176,0,0,0,0,0,10.62,7928.6589669717,0.328084,0,0,0,0,0,333.6, 1.6, 0.6,0,0,1024,1024,1024,1024,0,0,0,0,344.8,4.6,0,27,3.544,3.541,3.541,0,0,0,3.98,73.22,7928.6589669717,0.328084,11,AutoTakeoff,
2500,2023-07-20 17:04:25,0,0,0.328084,,,7928.6589669717,4.593176,0,0,0,0,0,10.62,7928.6589669717,0.328084,0,0,0,0,0,334, 0.8, 1.6,0,0,1024,1024,1024,1024,0,0,0,0,344.7,4.6,0,27,3.544,3.541,3.541,0,0,0,3.98,73.22,7928.6589669717,0.328084,11,AutoTakeoff,
2600,2023-07-20 17:04:25,0,0,0.328084,,,7928.6589669717,4.593176,0,0,0,0,0,10.62,7928.6589669717,0.328084,0,0,0,0,0,334.3, 0.7, 2.9,0,0,1024,1024,1024,1024,0,0,0,0,344.7,4.6,0,27,3.544,3.541,3.541,0,0,0,3.98,73.22,7928.6589669717,0.328084,11,AutoTakeoff,
2700,2023-07-20 17:04:25,0,0,0.328084,,,7928.6589669717,4.593176,0.223694,0,0,0,0,10.62,7928.6589669717,0.328084,0,0,0.223694,0,-0.223694,334, -0.7, 5.5,0,0,1063,1024,1024,1024,6,0,0,0,344.8,4.6,0,27,3.544,3.541,3.541,0,0,0,3.98,73.22,7928.6589669717,0.328084,11,AutoTakeoff,
2800,2023-07-20 17:04:25,0,0,0.328084,,,7928.6589669717,4.593176,0.223694,0,0,0,0,10.62,7928.6589669717,0.328084,0,0,0.223694,0.223694,-0.671082,334.3, -1.2, 3.6,0,0,1064,1024,1024,1024,6,0,0,0,344.8,4.6,0,27,3.544,3.541,3.541,0,0,0,3.98,73.22,7928.6589669717,0.328084,11,AutoTakeoff,
2900,2023-07-20 17:04:25,0,0,0.656168,,,7928.9870509717,1.312336,0.6263432,0,0,0,0,10.62,7928.9870509717,0.656168,0,0,0.447388,0.447388,-1.11847,334.3, 0, -0.2,0,0,1090,1024,1024,1024,10,0,0,0,344.8,4.6,0,27,3.544,3.541,3.541,0,0,0,3.98,73.22,7928.9870509717,0.656168,11,AutoTakeoff,
3000,2023-07-20 17:04:25,0,0,0.656168,,,7928.9870509717,1.968504,0.6263432,0,0,0,0,10.62,7928.9870509717,0.656168,0,0,0.447388,0.447388,-1.342164,334.3, 0, -1.8,0,0,1142,1024,1024,1024,18,0,0,0,344.8,4.6,0,27,3.544,3.541,3.541,0,0,0,3.98,73.22,7928.9870509717,0.656168,11,AutoTakeoff,
3100,2023-07-20 17:04:25,0,0,0.984252,,,7929.3151349717,2.296588,0.4921268,0,0,0,0,10.519,7929.3151349717,0.984252,0,0,0.223694,0.447388,-1.789552,334.2, 0.5, -2.9,0,0,1142,1024,1024,1024,18,0,0,0,344.8,4.6,0,27,3.461,3.457,3.452,0,0,0,5.186,73.22,7929.3151349717,0.984252,11,AutoTakeoff,
3200,2023-07-20 17:04:25,0,0,1.312336,,,7929.6432189717,2.296588,0.3131716,0,0,0,0,10.519,7929.6432189717,1.312336,0,0,0.223694,0.223694,-1.789552,334.1, 1, -3.3,0,0,1199,1024,1024,1024,27,0,0,0,344.8,4.6,0,27,3.461,3.457,3.452,0,0,0,5.186,73.22,7929.6432189717,1.312336,11,AutoTakeoff,
3300,2023-07-20 17:04:25,0,0,1.64042,,,7929.9713029717,2.624672,0.3131716,0,0,0,0,10.519,7929.9713029717,1.64042,0,0,0.223694,0.223694,-2.013246,334.1, 0.6, -3.3,0,0,1619,1024,1024,1024,90,0,0,0,344.8,4.6,0,27,3.461,3.457,3.452,0,0,0,5.186,73.22,7929.9713029717,1.64042,11,AutoTakeoff,
3400,2023-07-20 17:04:26,0,0,1.968504,,,7930.2993869717,6.233596,0.223694,0,0,0,0,10.519,7930.2993869717,1.968504,0,0,0,0.223694,-2.23694,334.2, 0, -3.3,0,0,1684,1024,1024,1024,100,0,0,0,344.8,4.6,0,27,3.461,3.457,3.452,0,0,0,5.186,73.22,7930.2993869717,1.968504,11,AutoTakeoff,
3500,2023-07-20 17:04:26,0,0,2.296588,,,7930.6274709717,6.56168,0.223694,0,0,0,0,10.519,7930.6274709717,2.296588,0,0,0,0.223694,-2.684328,334.2, -0.8, -2.7,0,0,1684,1024,1024,1024,100,0,0,0,344.8,4.6,0,27,3.461,3.457,3.452,0,0,0,5.186,73.22,7930.6274709717,2.296588,6,P-GPS,
3600,2023-07-20 17:04:26,0,0,2.624672,,,7930.9555549717,6.889764,0.223694,0,0,0,0,10.519,7930.9555549717,2.624672,0,0,0,0.223694,-3.35541,334.1, -0.9, -2.2,0,0,1684,1024,1024,1024,100,0,0,0,344.8,4.6,0,27,3.461,3.457,3.452,0,0,0,5.186,73.22,7930.9555549717,2.624672,6,P-GPS,
3700,2023-07-20 17:04:26,0,0,3.28084,,,7931.6117229717,7.545932,0,0,0,0,0,10.519,7931.6117229717,3.28084,0,0,0,0,-4.026492,334, -0.8, -2.1,0,0,1684,1024,1024,1024,100,0,0,0,344.9,4.6,0,27,3.461,3.457,3.452,0,0,0,5.186,73.22,7931.6117229717,3.28084,6,P-GPS,
3800,2023-07-20 17:04:26,0,0,3.937008,,,7932.2678909717,8.2021,0,0,0,0,0,10.519,7932.2678909717,3.937008,0,0,0,0,-4.921268,334, -0.8, -1.8,0,0,1684,1024,1024,1024,100,0,0,0,344.8,4.6,0,27,3.461,3.457,3.452,0,0,0,5.186,73.22,7932.2678909717,3.937008,6,P-GPS,
3900,2023-07-20 17:04:26,0,0,4.593176,,,7932.9240589717,9.186352,0,0,0,0,0,10.519,7932.9240589717,4.593176,0,0,0,0,-5.816044,333.9, -0.8, -1.4,0,0,1684,1024,1024,1024,100,0,0,0,344.8,4.6,0,27,3.461,3.457,3.452,0,0,0,5.186,73.22,7932.9240589717,4.593176,6,P-GPS,
4000,2023-07-20 17:04:26,0,0,5.577428,,,7933.9083109717,10.170604,0,0,0,0,0,10.519,7933.9083109717,5.577428,0,0,0,0,-6.71082,333.9, -1.1, -1.1,0,0,1684,1227,1024,1024,100,31,0,0,344.9,4.6,0,27,3.461,3.457,3.452,0,0,0,5.186,73.22,7933.9083109717,5.577428,6,P-GPS,
4100,2023-07-20 17:04:26,0,0,6.56168,,,7934.8925629717,11.154856,0,0,0,0,0,10.392,7934.8925629717,6.56168,0,0,0,0,-7.82929,333.8, -1, -1.2,0,0,1684,1227,1024,1024,100,31,0,0,344.8,4.6,0,27,3.406,3.404,3.4,0,0,0,10.534,73.22,7934.8925629717,6.56168,6,P-GPS,
4200,2023-07-20 17:04:26,0,0,7.874016,,,7936.2048989717,12.467192,0,0,0,0,0,10.392,7936.2048989717,7.874016,0,0,0,0,-8.724066,334.1, -0.7, -1.3,0,0,1684,1572,1024,1024,100,83,0,0,344.9,4.6,0,27,3.406,3.404,3.4,0,0,0,10.534,73.22,7936.2048989717,7.874016,6,P-GPS,
4300,2023-07-20 17:04:26,0,0,9.186352,,,7937.5172349717,13.779528,0,0,0,0,0,10.392,7937.5172349717,9.186352,0,0,0,0,-9.842536,335.6, -0.8, -1.6,0,0,1540,1684,1024,1024,78,100,0,0,346.5,4.6,0,27,3.406,3.404,3.4,0,0,0,10.534,73.22,7937.5172349717,9.186352,6,P-GPS,
4400,2023-07-20 17:04:26,0,0,10.826772,,,7939.1576549717,15.419948,0,0,0,0,0,10.392,7939.1576549717,10.826772,0,0,0,0,-10.737312,338.3, -0.9, -1.4,0,0,1426,1684,1024,1024,61,100,0,0,350.4,4.6,0,27,3.406,3.404,3.4,0,0,0,10.534,73.22,7939.1576549717,10.826772,6,P-GPS,
4500,2023-07-20 17:04:27,0,0,12.467192,,,7940.7980749717,16.732284,0,0,0,0,0,10.392,7940.7980749717,12.467192,0,0,0,0,-10.961006,342.3, -1.4, -0.8,0,0,1430,1684,1024,1024,62,100,0,0,355.7,4.6,0,27,3.406,3.404,3.4,0,0,0,10.534,73.22,7940.7980749717,12.467192,6,P-GPS,
4600,2023-07-20 17:04:27,0,0,14.107612,,,7942.4384949717,18.372704,0,0,0,0,0,10.392,7942.4384949717,14.107612,0,0,0,0,-10.737312,347.5, -1.4, -0.8,0,0,1436,1684,1024,1024,62,100,0,0,1.4,4.6,0,27,3.406,3.404,3.4,0,0,0,10.534,73.22,7942.4384949717,14.107612,6,P-GPS,
4700,2023-07-20 17:04:27,0,0,15.419948,,,7943.7508309717,20.013124,0,0,0,0,0,10.392,7943.7508309717,15.419948,0,0,0,0,-10.289924,353.2, -1, -0.9,0,0,1469,1684,1024,1024,67,100,0,0,7.4,4.6,0,27,3.406,3.404,3.4,0,0,0,10.534,73.22,7943.7508309717,15.419948,6,P-GPS,
4800,2023-07-20 17:04:27,0,0,17.060368,,,7945.3912509717,21.32546,0,0,0,0,0,10.392,7945.3912509717,17.060368,0,0,0,0,-9.618842,359.2, -0.9, -1.1,0,0,1513,1684,1024,1024,74,100,0,0,13.4,4.6,0,27,3.406,3.404,3.4,0,0,0,10.534,73.22,7945.3912509717,17.060368,6,P-GPS,
4900,2023-07-20 17:04:27,0,0,18.372704,,,7946.7035869717,22.637796,0,0,0,0,0,10.392,7946.7035869717,18.372704,0,0,0,0,-8.94776,5.2, -0.9, -1.3,0,0,1513,1684,1024,1024,74,100,0,0,19.4,4.6,0,27,3.406,3.404,3.4,0,0,0,10.534,73.22,7946.7035869717,18.372704,6,P-GPS,
5000,2023-07-20 17:04:27,0,0,19.68504,,,7948.0159229717,23.950132,0,0,0,0,0,10.392,7948.0159229717,19.68504,0,0,0,0,-8.276678,11.1, -0.4, -1,0,0,1673,1684,1024,1024,98,100,0,0,25.3,4.6,0,27,3.406,3.404,3.4,0,0,0,10.534,73.22,7948.0159229717,19.68504,6,P-GPS,
5100,2023-07-20 17:04:27,0,0,20.997376,,,7949.3282589717,24.934384,0,0,0,0,0,10.068,7949.3282589717,20.997376,0,0,0,0,-8.052984,17.2, -0.3, -1.1,0,0,1607,1684,1024,1024,88,100,0,0,31.4,4.6,0,27,3.458,3.459,3.46,0,0,0,16.637,73.22,7949.3282589717,20.997376,6,P-GPS,
5200,2023-07-20 17:04:27,0,0,21.981628,,,7950.3125109717,25.918636,0,0,0,0,0,10.068,7950.3125109717,21.981628,0,0,0,0,-8.500372,23.2, 0, -1.7,0,0,1420,1684,1024,1024,60,100,0,0,37.4,4.6,0,27,3.458,3.459,3.46,0,0,0,16.637,73.22,7950.3125109717,21.981628,6,P-GPS,
5300,2023-07-20 17:04:27,0,0,23.293964,,,7951.6248469717,27.230972,0,0,0,0,0,10.068,7951.6248469717,23.293964,0,0,0,0,-8.724066,29.2, 0, -2.2,0,0,1420,1684,1024,1024,60,100,0,0,43.3,4.6,0,27,3.458,3.459,3.46,0,0,0,16.637,73.22,7951.6248469717,23.293964,6,P-GPS,
5400,2023-07-20 17:04:28,0,0,24.6063,,,7952.9371829717,28.215224,0,0,0,0,0,10.068,7952.9371829717,24.6063,0,0,0,0,-8.276678,35.2, 0.4, -2.2,0,0,1419,1684,1024,1024,60,100,0,0,49.3,4.5,0,27,3.458,3.459,3.46,0,0,0,16.637,73.22,7952.9371829717,24.6063,6,P-GPS,
5500,2023-07-20 17:04:28,0,0,25.918636,,,7954.2495189717,29.199476,0,0,0,0,0,10.068,7954.2495189717,25.918636,0,0,0,0,-7.605596,41.1, 0.6, -1.9,0,0,1419,1684,1024,1024,60,100,0,0,55.3,4,0,27,3.458,3.459,3.46,0,0,0,16.637,73.22,7954.2495189717,25.918636,6,P-GPS,
5600,2023-07-20 17:04:28,0,0,26.902888,,,7955.2337709717,29.855644,0,0,0,0,0,10.068,7955.2337709717,26.902888,0,0,0,0,-6.934514,47.1, 0.6, -1.6,0,0,1392,1684,1024,1024,56,100,0,0,61.3,3.2,0,27,3.458,3.459,3.46,0,0,0,16.637,73.22,7955.2337709717,26.902888,6,P-GPS,
5700,2023-07-20 17:04:28,0,0,27.88714,,,7956.2180229717,30.839896,0,0,0,0,0,10.068,7956.2180229717,27.88714,0,0,0,0,-6.263432,53, 0.7, -1.5,0,0,1392,1684,1024,1024,56,100,0,0,67.3,2.7,0,27,3.458,3.459,3.46,0,0,0,16.637,73.22,7956.2180229717,27.88714,6,P-GPS,
5800,2023-07-20 17:04:28,0,0,28.871392,,,7957.2022749717,31.496064,0,0,0,0,0,10.068,7957.2022749717,28.871392,0,0,0,0,-5.59235,59.1, 0.9, -1.6,0,0,1276,1684,1024,1024,38,100,0,0,73.3,2.3,0,27,3.458,3.459,3.46,0,0,0,16.637,73.22,7957.2022749717,28.871392,6,P-GPS,
5900,2023-07-20 17:04:28,0,0,29.52756,,,7957.8584429717,32.152232,0,0,0,0,0,10.068,7957.8584429717,29.52756,0,0,0,0,-4.697574,65.2, 1.2, -1.5,0,0,1279,1684,1024,1024,39,100,0,0,79.3,1.6,0,27,3.458,3.459,3.46,0,0,0,16.637,73.22,7957.8584429717,29.52756,6,P-GPS,
6000,2023-07-20 17:04:28,0,0,30.183728,,,7958.5146109717,32.480316,0,0,0,0,0,10.068,7958.5146109717,30.183728,0,0,0,0,-3.802798,71.2, 1.3, -1.5,0,0,1282,1684,1024,1024,39,100,0,0,85.3,0.4,0,27,3.458,3.459,3.46,0,0,0,16.637,73.22,7958.5146109717,30.183728,6,P-GPS,
6100,2023-07-20 17:04:28,0,0,30.839896,,,7959.1707789717,32.8084,0,0,0,0,0,10.346,7959.1707789717,30.839896,0,0,0,0,-3.131716,77.2, 1.3, -1.3,0,0,1300,1515,1024,1024,42,74,0,0,91.3,-0.5,0,27,3.474,3.47,3.484,0,0,0,10.053,73.58,7959.1707789717,30.839896,6,P-GPS,
6200,2023-07-20 17:04:28,0,0,31.16798,,,7959.4988629717,32.8084,0,0,0,0,0,10.346,7959.4988629717,31.16798,0,0,0,0,-2.460634,82.7, 1, -1,0,0,1467,1484,1024,1024,67,70,0,0,97.1,-1.1,0,27,3.474,3.47,3.484,0,0,0,10.053,73.58,7959.4988629717,31.16798,6,P-GPS,
6300,2023-07-20 17:04:28,0,0,31.496064,,,7959.8269469717,33.136484,0,0,0,0,0,10.346,7959.8269469717,31.496064,0,0,0,0,-2.460634,87.7, 0.6, -0.9,0,0,1578,1480,1024,1024,84,69,0,0,101.5,-1.6,0,27,3.474,3.47,3.484,0,0,0,10.053,73.58,7959.8269469717,31.496064,6,P-GPS,
6400,2023-07-20 17:04:28,0,0,32.152232,,,7960.4831149717,33.136484,0,0,0,0,0,10.346,7960.4831149717,32.152232,0,0,0,0,-2.908022,91.9, 1, -0.5,0,0,1588,1368,1024,1024,85,52,0,0,104.9,-2.2,0,27,3.474,3.47,3.484,0,0,0,10.053,73.58,7960.4831149717,32.152232,6,P-GPS,
6500,2023-07-20 17:04:29,0,0,32.480316,,,7960.8111989717,33.464568,0,0,0,0,0,10.346,7960.8111989717,32.480316,0,0,0,0,-3.802798,95.2, 1.7, -0.7,0,0,1652,1049,1024,1024,95,4,0,0,107.9,-2.7,0,27,3.474,3.47,3.484,0,0,0,10.053,73.58,7960.8111989717,32.480316,6,P-GPS,
6600,2023-07-20 17:04:29,0,0,33.136484,,,7961.4673669717,34.120736,0,0,0,0,0,10.346,7961.4673669717,33.136484,0,0,0,0,-4.921268,97.6, 2.3, -0.5,0,0,1652,1049,1024,1024,95,4,0,0,110.3,-3.1,0,27,3.474,3.47,3.484,0,0,0,10.053,73.58,7961.4673669717,33.136484,6,P-GPS,
6700,2023-07-20 17:04:29,0,0,34.120736,,,7962.4516189717,34.776904,0,0,0,0,0,10.346,7962.4516189717,34.120736,0,0,0,0,-6.039738,99.4, 2.4, -0.7,0,0,1684,1182,1024,1024,100,24,0,0,111.6,-3.2,0,27,3.474,3.47,3.484,0,0,0,10.053,73.58,7962.4516189717,34.120736,6,P-GPS,
6800,2023-07-20 17:04:29,0,0,34.776904,,,7963.1077869717,35.433072,0,0,0,0,0,10.346,7963.1077869717,34.776904,0,0,0,0,-6.263432,100.6, 1.8, -0.7,0,0,1684,1193,1024,1024,100,26,0,0,112.3,-3.2,0,27,3.474,3.47,3.484,0,0,0,10.053,73.58,7963.1077869717,34.776904,6,P-GPS,
6900,2023-07-20 17:04:29,0,0,35.761156,,,7964.0920389717,36.417324,0,0,0,0,0,10.346,7964.0920389717,35.761156,0,0,0,0,-6.039738,101.1, 2, -0.7,0,0,1684,1126,1024,1024,100,15,0,0,112.7,-3.2,0,27,3.474,3.47,3.484,0,0,0,10.053,73.58,7964.0920389717,35.761156,6,P-GPS,
7000,2023-07-20 17:04:29,0,0,36.745408,,,7965.0762909717,37.073492,0,0,0,0,0,10.346,7965.0762909717,36.745408,0,0,0,0,-5.368656,101.4, 1.8, -0.3,0,0,1684,1056,1024,1024,100,5,0,0,113,-3.2,0,27,3.474,3.47,3.484,0,0,0,10.053,73.58,7965.0762909717,36.745408,6,P-GPS,
7100,2023-07-20 17:04:29,0,0,37.401576,,,7965.7324589717,42.322836,0,0,0,0,0,10.265,7965.7324589717,37.401576,0,0,0,0,-5.144962,101.8, 1, 0.1,0,0,1684,1027,1622,1024,100,0,91,0,113.2,-3.2,0,27,3.441,3.45,3.452,0,0,0,9.004,73.58,7965.7324589717,37.401576,6,P-GPS,
7200,2023-07-20 17:04:29,0,0,38.385828,,,7966.7167109717,43.307088,0,0,0,0,0,10.265,7966.7167109717,38.385828,0,0,0,0,-5.816044,102.1, -0.8, 0.4,0,0,1684,1027,1646,1024,100,0,94,0,113.3,-3.2,0,27,3.441,3.45,3.452,0,0,0,9.004,73.58,7966.7167109717,38.385828,6,P-GPS,
7300,2023-07-20 17:04:29,0,0,39.041996,,,7967.3728789717,44.29134,0.223694,0,0,0,0,10.265,7967.3728789717,39.041996,0,0,0,0.223694,-6.71082,102.2, -14.6, 0.4,0,0,1684,1028,1616,1024,100,1,90,0,113.4,-3.2,0,27,3.441,3.45,3.452,0,0,0,9.004,73.58,7967.3728789717,39.041996,6,P-GPS,
7400,2023-07-20 17:04:30,0,0,40.354332,,,7968.6852149717,45.275592,1.3645334,0,0,0,0,10.265,7968.6852149717,40.354332,0,0,-0.223694,1.342164,-7.605596,102.4, -25.7, -0.1,0,0,1684,1028,1616,1024,100,1,90,0,113.4,-3.2,0,27,3.441,3.45,3.452,0,0,0,9.004,73.58,7968.6852149717,40.354332,6,P-GPS,
7500,2023-07-20 17:04:30,0,0,41.338584,,,7969.6694669717,46.259844,2.9751302,0,0,0,0,10.265,7969.6694669717,41.338584,0,0,-0.671082,2.908022,-8.276678,102.3, -24.5, -0.4,0,0,1684,1032,1622,1024,100,1,91,0,113.3,-3.2,0,27,3.441,3.45,3.452,0,0,0,9.004,73.58,7969.6694669717,41.338584,6,P-GPS,
7600,2023-07-20 17:04:30,0,0,42.65092,,,7970.9818029717,47.244096,4.3396636,0,0,0,0,10.265,7970.9818029717,42.65092,0,0,-0.894776,4.250186,-9.171454,102.3, -20.3, -0.4,0,0,1684,1046,1626,1024,100,3,91,0,113.4,-3.2,0,27,3.441,3.45,3.452,0,0,0,9.004,73.58,7970.9818029717,42.65092,6,P-GPS,
7700,2023-07-20 17:04:30,0,0,43.963256,,,7972.2941389717,48.884516,5.704197,0,0,0,0,10.265,7972.2941389717,43.963256,0,0,-1.11847,5.59235,-9.842536,102, -19.4, -0.5,0,0,1684,1046,1655,1024,100,3,96,0,113.3,-3.2,0,27,3.441,3.45,3.452,0,0,0,9.004,73.58,7972.2941389717,43.963256,6,P-GPS,
7800,2023-07-20 17:04:30,0,0,45.603676,,,7973.9345589717,49.868768,5.704197,0,0,0,0,10.265,7973.9345589717,45.603676,0,0,-1.342164,6.487126,-10.737312,102.1, -20, -1,0,0,1684,1044,1684,1024,100,3,100,0,113.3,-3.2,0,27,3.441,3.45,3.452,0,0,0,9.004,73.58,7973.9345589717,45.603676,6,P-GPS,
7900,2023-07-20 17:04:30,0,0,47.244096,,,7975.5749789717,51.837272,7.9858758,0,0,0,0,10.265,7975.5749789717,47.244096,0,0,-1.565858,7.82929,-11.408394,102.2, -23.1, -0.9,0,0,1684,1044,1684,1024,100,3,100,0,113.4,-3.2,0,27,3.441,3.45,3.452,0,0,0,9.004,73.58,7975.5749789717,47.244096,6,P-GPS,
8000,2023-07-20 17:04:30,0,0,48.884516,,,7977.2153989717,53.805776,9.1267152,0,0,0,0,10.265,7977.2153989717,48.884516,0,0,-1.789552,8.94776,-12.079476,102.3, -25.1, -0.8,0,0,1684,1044,1684,1024,100,3,100,0,113.3,-3.2,0,27,3.441,3.45,3.452,0,0,0,9.004,73.58,7977.2153989717,48.884516,6,P-GPS,
8100,2023-07-20 17:04:30,0,0,50.85302,,,7979.1839029717,55.77428,10.5359874,0,0,0,0,10.092,7979.1839029717,50.85302,0,0,-2.23694,10.289924,-12.526864,102.2, -24.6, -0.4,0,0,1684,1044,1684,1024,100,3,100,0,113.3,-3.2,0,27,3.33,3.33,3.329,0,0,0,14.939,73.76,7979.1839029717,50.85302,6,P-GPS,
8200,2023-07-20 17:04:30,0,0,52.821524,,,7981.1524069717,58.070868,11.6768268,0,0,0,0,10.092,7981.1524069717,52.821524,0,0,-2.460634,11.408394,-12.974252,102.1, -24.3, -0.8,0,0,1684,1044,1684,1024,100,3,100,0,113.3,-3.2,0,27,3.33,3.33,3.329,0,0,0,14.939,73.76,7981.1524069717,52.821524,6,P-GPS,
8300,2023-07-20 17:04:30,0,0,54.790028,,,7983.1209109717,60.367456,12.5939722,0,0,0,0,10.092,7983.1209109717,54.790028,0,0,-2.684328,12.30317,-13.197946,102.2, -24.5, -0.6,0,0,1684,1044,1684,1024,100,3,100,0,113.3,-3.2,0,27,3.33,3.33,3.329,0,0,0,14.939,73.76,7983.1209109717,54.790028,6,P-GPS,
8400,2023-07-20 17:04:31,0,0,56.758532,,,7985.0894149717,62.33596,13.7348116,0,0,0,0,10.092,7985.0894149717,56.758532,0,0,-2.908022,13.42164,-13.42164,102.3, -25, -0.3,0,0,1684,1044,1684,1024,100,3,100,0,113.3,-3.2,0,27,3.33,3.33,3.329,0,0,0,14.939,73.76,7985.0894149717,56.758532,6,P-GPS,
8500,2023-07-20 17:04:31,0,0,58.727036,,,7987.0579189717,69.553808,14.651957,0,0,0,0,10.092,7987.0579189717,58.727036,0,0,-3.131716,14.316416,-13.42164,102.3, -25.3, -0.1,0,0,1684,1048,1684,1024,100,4,100,0,113.3,-3.2,0,27,3.33,3.33,3.329,0,0,0,14.939,73.76,7987.0579189717,58.727036,6,P-GPS,
8600,2023-07-20 17:04:31,0,0,60.69554,,,7989.0264229717,71.850396,15.5691024,0,0,0,0,10.092,7989.0264229717,60.69554,0,0,-3.35541,15.211192,-13.42164,102.4, -25, -0.4,0,0,1684,1072,1684,1024,100,7,100,0,113.3,-3.2,0,27,3.33,3.33,3.329,0,0,0,14.939,73.76,7989.0264229717,60.69554,6,P-GPS,
8700,2023-07-20 17:04:31,0,0,62.664044,,,7990.9949269717,74.146984,16.5086172,0,0,0,0,10.092,7990.9949269717,62.664044,0,0,-3.579104,16.105968,-13.645334,102.3, -24.6, -0.1,0,0,1684,1143,1684,1024,100,18,100,0,113.4,-3.2,0,27,3.33,3.33,3.329,0,0,0,14.939,73.76,7990.9949269717,62.664044,6,P-GPS,
8800,2023-07-20 17:04:31,0,0,64.960632,,,7993.2915149717,76.443572,17.2020686,0,0,0,0,10.092,7993.2915149717,64.960632,0,0,-3.802798,16.77705,-13.42164,102.1, -24.7, 0.9,0,0,1684,1143,1684,1024,100,18,100,0,113.4,-3.2,0,27,3.33,3.33,3.329,0,0,0,14.939,73.76,7993.2915149717,64.960632,6,P-GPS,
8900,2023-07-20 17:04:31,0,0,66.929136,,,7995.2600189717,78.412076,18.119214,0,0,0,0,10.092,7995.2600189717,66.929136,0,0,-4.026492,17.671826,-13.42164,102.1, -24.5, 0.5,0,0,1684,1143,1684,1024,100,18,100,0,113.6,-3.2,0,27,3.33,3.33,3.329,0,0,0,14.939,73.76,7995.2600189717,66.929136,6,P-GPS,
9000,2023-07-20 17:04:31,0,0,68.569556,,,7996.9004389717,83.66142,18.8350348,0,0,0,0,10.092,7996.9004389717,68.569556,0,0,-4.250186,18.342908,-13.197946,102.2, -24.6, 0.3,0,0,1684,1143,1684,1024,100,18,100,0,113.7,-3.2,0,27,3.33,3.33,3.329,0,0,0,14.939,73.76,7996.9004389717,68.569556,6,P-GPS,
9100,2023-07-20 17:04:31,0,0,70.866144,,,7999.1970269717,83.66142,19.5284862,0,0,0,0,10.033,7999.1970269717,70.866144,0,0,-4.47388,19.01399,-13.42164,102.4, -24.7, 0.3,0,0,1684,1143,1684,1024,100,18,100,0,113.8,-3.2,0,27,3.36,3.359,3.36,0,0,0,19.137,73.76,7999.1970269717,70.866144,6,P-GPS,
9200,2023-07-20 17:04:31,0,0,72.834648,,,8001.1655309717,83.66142,20.1771988,0,0,0,0,10.033,8001.1655309717,72.834648,0,0,-4.47388,19.685072,-13.197946,102.5, -25, 0.5,0,0,1684,1147,1684,1024,100,19,100,0,114,-3.2,0,27,3.36,3.359,3.36,0,0,0,19.137,73.76,8001.1655309717,72.834648,6,P-GPS,
9300,2023-07-20 17:04:31,0,0,74.475068,,,8002.8059509717,83.66142,20.6693256,0,0,0,0,10.033,8002.8059509717,74.475068,0,0,-4.697574,20.13246,-12.526864,102.6, -25.6, 0.7,0,0,1684,1147,1684,1024,100,19,100,0,114.1,-3.2,0,27,3.36,3.359,3.36,0,0,0,19.137,73.76,8002.8059509717,74.475068,6,P-GPS,
9400,2023-07-20 17:04:31,0,0,76.443572,,,8004.7744549717,83.66142,20.6693256,0,0,0,0,10.033,8004.7744549717,76.443572,0,0,-4.921268,20.579848,-11.855782,102.3, -27.2, 2.7,0,0,1684,1215,1684,1024,100,29,100,0,114.3,-3.2,0,27,3.36,3.359,3.36,0,0,0,19.137,73.76,8004.7744549717,76.443572,6,P-GPS,
9500,2023-07-20 17:04:32,0,0,78.083992,,,8006.4148749717,83.66142,21.6535792,0,0,0,0,10.033,8006.4148749717,78.083992,0,0,-5.144962,21.027236,-10.961006,101.9, -28.1, 5.4,0,0,1684,1215,1684,1024,100,29,100,0,114.6,-3.2,0,27,3.36,3.359,3.36,0,0,0,19.137,73.76,8006.4148749717,78.083992,6,P-GPS,
9600,2023-07-20 17:04:32,0,0,79.396328,,,8007.7272109717,83.66142,21.922012,0,0,0,0,10.033,8007.7272109717,79.396328,0,0,-5.368656,21.25093,-10.06623,101.6, -28.9, 5.5,0,0,1684,1228,1684,1024,100,31,100,0,115,-3.2,0,27,3.36,3.359,3.36,0,0,0,19.137,73.76,8007.7272109717,79.396328,6,P-GPS,
9700,2023-07-20 17:04:32,0,0,80.708664,,,8009.0395469717,83.66142,22.4141388,0,0,0,0,10.033,8009.0395469717,80.708664,0,0,-5.59235,21.698318,-8.94776,101.3, -29.2, 7.3,0,0,1684,1227,1684,1024,100,31,100,0,115.5,-3.2,0,27,3.36,3.359,3.36,0,0,0,19.137,73.76,8009.0395469717,80.708664,6,P-GPS,
9800,2023-07-20 17:04:32,0,0,82.021,,,8010.3518829717,83.66142,22.6825716,0,0,0,0,10.033,8010.3518829717,82.021,0,0,-5.816044,21.922012,-8.052984,101.7, -28.8, 8.3,0,0,1684,1227,1684,1024,100,31,100,0,116.1,-3.2,0,27,3.36,3.359,3.36,0,0,0,19.137,73.76,8010.3518829717,82.021,6,P-GPS,
9900,2023-07-20 17:04:32,0,0,83.005252,,,8011.3361349717,83.66142,23.2194372,0,0,0,0,10.033,8011.3361349717,83.005252,0,0,-6.263432,22.3694,-7.158208,102.1, -28.5, 8.1,0,0,1684,1226,1684,1024,100,31,100,0,116.5,-3.2,0,27,3.36,3.359,3.36,0,0,0,19.137,73.76,8011.3361349717,83.005252,6,P-GPS,
10000,2023-07-20 17:04:32,0,0,83.989504,,,8012.3203869717,83.66142,23.711564,0,0,0,0,10.033,8012.3203869717,83.989504,0,0,-6.487126,22.816788,-6.487126,102.6, -28.3, 8,0,0,1684,1224,1684,1024,100,30,100,0,117.1,-3.2,0,27,3.36,3.359,3.36,0,0,0,19.137,73.76,8012.3203869717,83.989504,6,P-GPS,
10100,2023-07-20 17:04:32,0,0,84.645672,,,8012.9765549717,83.66142,24.0694744,0,0,0,0,10.233,8012.9765549717,84.645672,0,0,-6.934514,23.040482,-6.039738,103.1, -28.1, 7.9,0,0,1684,1224,1684,1024,100,30,100,0,117.6,-3.2,0,26,3.43,3.427,3.427,0,0,0,13.975,73.94,8012.9765549717,84.645672,6,P-GPS,
10200,2023-07-20 17:04:32,0,0,85.30184,,,8013.6327229717,83.66142,24.6287094,0,0,0,0,10.233,8013.6327229717,85.30184,0,0,-7.381902,23.48787,-5.368656,103.8, -28, 7.6,0,0,1684,1137,1684,1024,100,17,100,0,118.1,-3.2,0,26,3.43,3.427,3.427,0,0,0,13.975,73.94,8013.6327229717,85.30184,6,P-GPS,
10300,2023-07-20 17:04:32,0,0,85.958008,,,8014.2888909717,83.66142,25.1208362,0,0,0,0,10.233,8014.2888909717,85.958008,0,0,-7.605596,23.935258,-5.144962,105.6, -27.5, 1.5,0,0,1684,1130,1684,1024,100,16,100,0,118.5,-3.2,0,26,3.43,3.427,3.427,0,0,0,13.975,73.94,8014.2888909717,85.958008,6,P-GPS,
10400,2023-07-20 17:04:33,0,0,86.614176,,,8014.9450589717,83.66142,25.8142876,0,0,0,0,10.233,8014.9450589717,86.614176,0,0,-7.82929,24.60634,-4.697574,106.3, -26.8, 0.5,0,0,1684,1119,1684,1024,100,14,100,0,118.7,-3.2,0,26,3.43,3.427,3.427,0,0,0,13.975,73.94,8014.9450589717,86.614176,6,P-GPS,
10500,2023-07-20 17:04:33,0,0,86.94226,,,8015.2731429717,83.66142,26.3064144,0,0,0,0,10.233,8015.2731429717,86.94226,0,0,-8.052984,25.053728,-4.47388,106.9, -26.1, 1.3,0,0,1684,1119,1684,1024,100,14,100,0,118.9,-3.2,0,26,3.43,3.427,3.427,0,0,0,13.975,73.94,8015.2731429717,86.94226,6,P-GPS,
10600,2023-07-20 17:04:33,0,0,87.598428,,,8015.9293109717,83.66142,26.8209106,0,0,0,0,10.233,8015.9293109717,87.598428,0,0,-8.276678,25.501116,-4.250186,107.4, -25.4, 1.3,0,0,1684,1057,1684,1024,100,5,100,0,119.1,-3.2,0,26,3.43,3.427,3.427,0,0,0,13.975,73.94,8015.9293109717,87.598428,6,P-GPS,
10700,2023-07-20 17:04:33,0,0,87.926512,,,8016.2573949717,83.66142,27.0893434,0,0,0,0,10.233,8016.2573949717,87.926512,0,0,-8.500372,25.72481,-4.026492,107.7, -24.4, 0.2,0,0,1684,1058,1684,1024,100,5,100,0,119.2,-3.2,0,26,3.43,3.427,3.427,0,0,0,13.975,73.94,8016.2573949717,87.926512,6,P-GPS,
10800,2023-07-20 17:04:33,0,0,88.254596,,,8016.5854789717,83.66142,27.0893434,0,0,0,0,10.233,8016.5854789717,88.254596,0,0,-8.500372,26.172198,-3.802798,107.8, -23.8, -0.3,0,0,1684,1058,1684,1024,100,5,100,0,119.2,-3.2,0,26,3.43,3.427,3.427,0,0,0,13.975,73.94,8016.5854789717,88.254596,6,P-GPS,
10900,2023-07-20 17:04:33,0,0,88.58268,,,8016.9135629717,83.66142,28.0064888,0,0,0,0,10.233,8016.9135629717,88.58268,0,0,-8.724066,26.619586,-3.802798,107.8, -23.1, 0.2,0,0,1684,1059,1684,1024,100,5,100,0,119.2,-3.2,0,26,3.43,3.427,3.427,0,0,0,13.975,73.94,8016.9135629717,88.58268,6,P-GPS,
11000,2023-07-20 17:04:33,0,0,89.238848,,,8017.5697309717,83.66142,28.2301828,0,0,0,0,10.233,8017.5697309717,89.238848,0,0,-8.724066,26.84328,-3.802798,107.9, -22.6, 0.7,0,0,1684,1059,1684,1024,100,5,100,0,119.3,-3.2,0,26,3.43,3.427,3.427,0,0,0,13.975,73.94,8017.5697309717,89.238848,6,P-GPS,
11100,2023-07-20 17:04:33,0,0,89.895016,,,8018.2258989717,83.66142,28.4986156,0,0,0,0,10.204,8018.2258989717,89.895016,0,0,-8.94776,27.066974,-3.579104,107.9, -22.8, 0.7,0,0,1684,1060,1684,1024,100,5,100,0,119.3,-3.2,0,26,3.397,3.393,3.388,0,0,0,11.194,74.12,8018.2258989717,89.895016,6,P-GPS,
11200,2023-07-20 17:04:33,0,0,90.2231,,,8018.5539829717,83.66142,28.7223096,0,0,0,0,10.204,8018.5539829717,90.2231,0,0,-8.94776,27.290668,-3.35541,108, -22.9, 0.4,0,0,1684,1060,1684,1024,100,5,100,0,119.3,-3.2,0,26,3.397,3.393,3.388,0,0,0,11.194,74.12,8018.5539829717,90.2231,6,P-GPS,
11300,2023-07-20 17:04:33,0,0,90.879268,,,8019.2101509717,83.66142,29.0131118,0,0,0,0,10.204,8019.2101509717,90.879268,0,0,-9.171454,27.514362,-3.35541,108.1, -22.5, -0.1,0,0,1684,1058,1684,1024,100,5,100,0,119.4,-3.2,0,26,3.397,3.393,3.388,0,0,0,11.194,74.12,8019.2101509717,90.879268,6,P-GPS,
11400,2023-07-20 17:04:34,0,0,91.207352,,,8019.5382349717,83.66142,29.2144364,0,0,0,0,10.204,8019.5382349717,91.207352,0,0,-9.171454,27.738056,-3.131716,108.1, -22, -0.3,0,0,1684,1024,1684,1024,100,0,100,0,119.4,-3.2,0,26,3.397,3.393,3.388,0,0,0,11.194,74.12,8019.5382349717,91.207352,6,P-GPS,
11500,2023-07-20 17:04:34,0,0,91.535436,,,8019.8663189717,83.66142,29.5052386,0,0,0,0,10.204,8019.8663189717,91.535436,0,0,-9.395148,27.96175,-2.908022,108.2, -22.2, -0.5,0,0,1024,1024,1684,1024,0,0,100,0,119.4,-3.2,0,26,3.397,3.393,3.388,0,0,0,11.194,74.12,8019.8663189717,91.535436,6,P-GPS,
11600,2023-07-20 17:04:34,0,0,91.86352,,,8020.1944029717,83.66142,29.7065632,0,0,0,0,10.204,8020.1944029717,91.86352,0,0,-9.395148,28.185444,-2.908022,108.4, -22.4, -1,0,0,1024,1024,1684,1024,0,0,100,0,119.4,-3.2,0,26,3.397,3.393,3.388,0,0,0,11.194,74.12,8020.1944029717,91.86352,6,P-GPS,
11700,2023-07-20 17:04:34,0,0,91.86352,,,8020.1944029717,83.66142,29.9302572,0,0,0,0,10.204,8020.1944029717,91.86352,0,0,-9.395148,28.409138,-2.23694,108.5, -23.8, -1.3,0,0,1024,1024,1684,1024,0,0,100,0,119.4,-3.2,0,26,3.397,3.393,3.388,0,0,0,11.194,74.12,8020.1944029717,91.86352,6,P-GPS,
11800,2023-07-20 17:04:34,0,0,91.535436,,,8019.8663189717,83.66142,29.9302572,0,0,0,0,10.204,8020.1944029717,91.86352,0,0,-9.395148,28.409138,-1.342164,108.5, -27.6, -0.5,0,0,1024,1024,1684,1024,0,0,100,0,119.4,-3.2,0,26,3.397,3.393,3.388,0,0,0,11.194,74.12,8019.8663189717,91.535436,31,Sport,
11900,2023-07-20 17:04:34,0,0,91.535436,,,8019.8663189717,83.66142,30.1315818,0,0,0,0,10.204,8020.1944029717,91.86352,0,0,-9.395148,28.632832,-0.447388,108.5, -32, -0.7,0,0,1024,1024,1684,1024,0,0,100,0,119.4,-3.2,0,26,3.397,3.393,3.388,0,0,0,11.194,74.12,8019.8663189717,91.535436,31,Sport,
12000,2023-07-20 17:04:34,0,0,91.207352,,,8019.5382349717,83.66142,30.422384,0,0,0,0,10.204,8020.1944029717,91.86352,0,0,-9.618842,28.856526,0,108.5, -31.6, -1,0,0,1541,1024,1684,1024,78,0,100,0,119.4,-3.2,0,26,3.397,3.393,3.388,0,0,0,11.194,74.12,8019.5382349717,91.207352,31,Sport,
12100,2023-07-20 17:04:34,0,0,91.207352,,,8019.5382349717,83.66142,30.422384,0,0,0,0,10.185,8020.1944029717,91.86352,0,0,-9.842536,29.303914,0.223694,108.3, -30.7, -1.3,0,0,1684,1024,1684,1024,100,0,100,0,119.4,-3.2,0,26,3.403,3.427,3.437,0,0,0,12.83,74.3,8019.5382349717,91.207352,31,Sport,
12200,2023-07-20 17:04:34,0,0,90.879268,,,8019.2101509717,83.66142,31.6303316,0,0,0,0,10.185,8020.1944029717,91.86352,0,0,-10.06623,29.974996,0,108.3, -29, -0.5,0,0,1684,1024,1684,1024,100,0,100,0,119.4,-3.2,0,26,3.403,3.427,3.437,0,0,0,12.83,74.3,8019.2101509717,90.879268,31,Sport,
12300,2023-07-20 17:04:34,0,0,91.207352,,,8019.5382349717,83.66142,31.6303316,0,0,4,0,10.185,8020.1944029717,91.86352,0,0,-10.289924,30.869772,-0.671082,108.3, -28.6, -0.2,0,0,1684,1024,1684,1024,100,0,100,0,119.4,-3.2,0,26,3.403,3.427,3.437,0,0,0,12.83,74.3,8019.5382349717,91.207352,31,Sport,
12400,2023-07-20 17:04:34,0,0,91.207352,,,8019.5382349717,83.66142,33.2409284,0,0,4,0,10.185,8020.1944029717,91.86352,0,0,-10.513618,31.540854,-1.342164,108.3, -29.2, -0.2,0,0,1684,1024,1684,1024,100,0,100,0,119.4,-3.2,0,26,3.403,3.427,3.437,0,0,0,12.83,74.3,8019.5382349717,91.207352,31,Sport,
12500,2023-07-20 17:04:35,0,0,91.535436,,,8019.8663189717,83.66142,33.9567492,0,0,4,0,10.185,8020.1944029717,91.86352,0,0,-10.737312,32.211936,-1.789552,108.3, -30.3, -0.2,0,0,1684,1024,1684,1024,100,0,100,0,119.4,-3.2,0,26,3.403,3.427,3.437,0,0,0,12.83,74.3,8019.8663189717,91.535436,31,Sport,
12600,2023-07-20 17:04:35,0,0,91.86352,,,8020.1944029717,83.66142,34.448876,0,0,4,0,10.185,8020.1944029717,91.86352,0,0,-10.961006,32.659324,-2.013246,108.4, -30.8, -0.3,0,0,1684,1024,1684,1024,100,0,100,0,119.4,-3.2,0,26,3.403,3.427,3.437,0,0,0,12.83,74.3,8020.1944029717,91.86352,31,Sport,
12700,2023-07-20 17:04:35,0,0,92.191604,,,8020.5224869717,83.66142,35.1646968,0,0,4,0,10.185,8020.5224869717,92.191604,0,0,-11.1847,33.330406,-2.23694,108.4, -29.9, -0.6,0,0,1684,1024,1684,1024,100,0,100,0,119.4,-3.2,0,26,3.403,3.427,3.437,0,0,0,12.83,74.3,8020.5224869717,92.191604,31,Sport,
12800,2023-07-20 17:04:35,0,0,92.519688,,,8020.8505709717,83.66142,35.5897154,0,0,4,0,10.185,8020.8505709717,92.519688,0,0,-11.1847,33.777794,-2.460634,108.5, -28.8, -0.8,0,0,1684,1024,1684,1024,100,0,100,0,119.4,-3.2,0,26,3.403,3.427,3.437,0,0,0,12.83,74.3,8020.8505709717,92.519688,31,Sport,
12900,2023-07-20 17:04:35,0,0,93.175856,,,8021.5067389717,83.66142,36.0818422,0,0,4,0,10.185,8021.5067389717,93.175856,0,0,-11.408394,34.225182,-2.684328,108.5, -28.8, -0.9,0,0,1684,1024,1684,1024,100,0,100,0,119.4,-3.2,0,26,3.403,3.427,3.437,0,0,0,12.83,74.3,8021.5067389717,93.175856,31,Sport,"GPS signal weak. Altitude limit set. Wait for GPS signal to return to normal to continue ascending (Code: 120856)"
13000,2023-07-20 17:04:35,0,0,93.832024,,,8022.1629069717,83.66142,36.2831668,0,0,4,0,10.185,8022.1629069717,93.832024,0,0,-11.408394,34.448876,-2.684328,108.5, -29, -0.8,0,0,1684,1024,1684,1024,100,0,100,0,119.4,-3.2,0,26,3.403,3.427,3.437,0,0,0,12.83,74.3,8022.1629069717,93.832024,31,Sport,
13100,2023-07-20 17:04:35,0,0,94.488192,,,8022.8190749717,83.66142,36.573969,0,0,4,0,9.989,8022.8190749717,94.488192,0,0,-11.632088,34.67257,-2.460634,108.4, -29.1, -1,0,0,1684,1034,1684,1024,100,2,100,0,119.4,-3.2,0,26,3.328,3.327,3.327,0,0,0,14.578,74.3,8022.8190749717,94.488192,31,Sport,
13200,2023-07-20 17:04:35,0,0,94.816276,,,8023.1471589717,83.66142,36.7752936,0,0,4,0,9.989,8023.1471589717,94.816276,0,0,-11.632088,34.896264,-2.23694,108.4, -29.8, -0.6,0,0,1684,1034,1684,1024,100,2,100,0,119.4,-3.2,0,26,3.328,3.327,3.327,0,0,0,14.578,74.3,8023.1471589717,94.816276,31,Sport,
13300,2023-07-20 17:04:35,0,0,95.14436,,,8023.4752429717,83.66142,36.9989876,0,0,4,0,9.989,8023.4752429717,95.14436,0,0,-11.632088,35.119958,-1.789552,108.4, -29.9, -0.8,0,0,1684,1034,1684,1024,100,2,100,0,119.4,-3.2,0,26,3.328,3.327,3.327,0,0,0,14.578,74.3,8023.4752429717,95.14436,31,Sport,
13400,2023-07-20 17:04:36,0,0,95.472444,,,8023.8033269717,83.66142,37.4911144,0,0,4,0,9.989,8023.8033269717,95.472444,0,0,-11.855782,35.567346,-1.565858,108.4, -29.5, -0.4,0,0,1684,1034,1684,1024,100,2,100,0,119.4,-3.2,0,26,3.328,3.327,3.327,0,0,0,14.578,74.3,8023.8033269717,95.472444,31,Sport,
13500,2023-07-20 17:04:36,0,0,95.800528,,,8024.1314109717,83.66142,37.692439,0,0,4,0,9.989,8024.1314109717,95.800528,0,0,-11.855782,35.79104,-1.342164,108.3, -29.5, 0,0,0,1684,1034,1563,1024,100,2,82,0,119.4,-3.2,0,26,3.328,3.327,3.327,0,0,0,14.578,74.3,8024.1314109717,95.800528,31,Sport,
13600,2023-07-20 17:04:36,0,0,95.800528,,,8024.1314109717,83.66142,37.916133,0,0,4,0,9.989,8024.1314109717,95.800528,0,0,-11.855782,36.014734,-0.894776,108.2, -29.3, -0.5,0,0,1684,1033,1024,1024,100,1,0,0,119.4,-3.2,0,26,3.328,3.327,3.327,0,0,0,14.578,74.3,8024.1314109717,95.800528,31,Sport,
13700,2023-07-20 17:04:36,0,0,96.128612,,,8024.4594949717,83.66142,38.1174576,0,0,4,0,9.989,8024.4594949717,96.128612,0,0,-11.855782,36.238428,-0.894776,108, -18.9, -0.4,0,0,1684,1030,1024,1024,100,1,0,0,119.4,-3.2,0,26,3.328,3.327,3.327,0,0,0,14.578,74.3,8024.4594949717,96.128612,31,Sport,
13800,2023-07-20 17:04:36,0,0,96.128612,,,8024.4594949717,83.66142,38.1174576,0,0,4,0,9.989,8024.4594949717,96.128612,0,0,-11.855782,36.014734,-1.342164,108.1, 5.7, -0.6,0,0,1684,1030,1024,1024,100,1,0,0,119.4,-3.2,0,26,3.328,3.327,3.327,0,0,0,14.578,74.3,8024.4594949717,96.128612,31,Sport,
13900,2023-07-20 17:04:36,0,0,96.456696,,,8024.7875789717,83.66142,36.4397526,0,0,4,0,9.989,8024.7875789717,96.456696,0,0,-11.1847,34.67257,-2.460634,108, 28.2, 0.4,0,0,1684,1024,1024,1024,100,0,0,0,119.4,-3.2,0,26,3.328,3.327,3.327,0,0,0,14.578,74.3,8024.7875789717,96.456696,31,Sport,
14000,2023-07-20 17:04:36,0,0,97.440948,,,8025.7718309717,83.66142,34.5830924,0,0,4,0,9.989,8025.7718309717,97.440948,0,0,-10.737312,32.883018,-2.908022,108, 24.8, 0,0,0,1684,1024,1024,1024,100,0,0,0,119.4,-3.2,0,26,3.328,3.327,3.327,0,0,0,14.578,74.3,8025.7718309717,97.440948,31,Sport,
14100,2023-07-20 17:04:36,0,0,97.769032,,,8026.0999149717,83.66142,34.5830924,0,0,4,0,10.121,8026.0999149717,97.769032,0,0,-10.289924,31.764548,-2.013246,108, 25.2, 0,0,0,1684,1024,1024,1024,100,0,0,0,119.4,-3.2,0,26,3.361,3.359,3.351,0,0,0,14.788,74.48,8026.0999149717,97.769032,31,Sport,
14200,2023-07-20 17:04:36,0,0,97.440948,,,8025.7718309717,83.66142,32.2566748,0,0,4,0,10.121,8026.0999149717,97.769032,0,0,-10.06623,30.646078,-1.11847,108, 27.3, 0,0,0,1684,1024,1024,1024,100,0,0,0,119.4,-3.2,0,26,3.361,3.359,3.351,0,0,0,14.788,74.48,8025.7718309717,97.440948,31,Sport,
14300,2023-07-20 17:04:36,0,0,97.440948,,,8025.7718309717,82.349084,31.0487272,0,0,4,0,10.121,8026.0999149717,97.769032,0,0,-9.618842,29.527608,-0.671082,107.9, 28.8, -0.1,0,0,1684,1024,1024,1024,100,0,0,0,119.4,-3.2,0,26,3.361,3.359,3.351,0,0,0,14.788,74.48,8025.7718309717,97.440948,31,Sport,
14400,2023-07-20 17:04:36,0,0,97.440948,,,8025.7718309717,82.021,29.639455,0,0,4,0,10.121,8026.0999149717,97.769032,0,0,-9.171454,28.185444,-0.223694,107.9, 29.6, -0.1,0,0,1684,1024,1024,1024,100,0,0,0,119.4,-3.2,0,26,3.361,3.359,3.351,0,0,0,14.788,74.48,8025.7718309717,97.440948,31,Sport,
14500,2023-07-20 17:04:37,0,0,97.440948,,,8025.7718309717,82.021,28.0064888,0,0,4,0,10.121,8026.0999149717,97.769032,0,0,-8.724066,26.619586,-0.223694,107.9, 30.5, 0.3,0,0,1684,1024,1024,1024,100,0,0,0,119.4,-3.2,0,26,3.361,3.359,3.351,0,0,0,14.788,74.48,8025.7718309717,97.440948,31,Sport,
14600,2023-07-20 17:04:37,0,0,97.769032,,,8026.0999149717,82.021,26.5972166,0,0,4,0,10.121,8026.0999149717,97.769032,0,0,-8.276678,25.277422,-0.223694,107.9, 30.3, -0.3,0,0,1684,1024,1024,1024,100,0,0,0,119.4,-3.2,0,26,3.361,3.359,3.351,0,0,0,14.788,74.48,8026.0999149717,97.769032,31,Sport,
14700,2023-07-20 17:04:37,0,0,97.769032,,,8026.0999149717,82.021,25.1879444,0,0,4,0,10.121,8026.0999149717,97.769032,0,0,-7.82929,23.935258,0,107.8, 31.6, -0.8,0,0,1684,1054,1024,1024,100,5,0,0,119.4,-3.2,0,26,3.361,3.359,3.351,0,0,0,14.788,74.48,8026.0999149717,97.769032,31,Sport,
14800,2023-07-20 17:04:37,0,0,97.769032,,,8026.0999149717,82.021,23.7786722,0,0,4,0,10.121,8026.0999149717,97.769032,0,0,-7.381902,22.593094,0,107.5, 33, -0.7,0,0,1684,1100,1024,1024,100,12,0,0,119.4,-3.2,0,26,3.361,3.359,3.351,0,0,0,14.788,74.48,8026.0999149717,97.769032,31,Sport,
14900,2023-07-20 17:04:37,0,0,97.769032,,,8026.0999149717,81.692916,22.0785978,0,0,4,0,10.121,8026.0999149717,97.769032,0,0,-6.71082,21.027236,0,107.6, 34.8, -0.8,0,0,1684,1100,1024,1024,100,12,0,0,119.5,-3.2,0,26,3.361,3.359,3.351,0,0,0,14.788,74.48,8026.0999149717,97.769032,31,Sport,
15000,2023-07-20 17:04:37,0,0,97.769032,,,8026.0999149717,81.036748,20.4456316,0,0,4,0,10.121,8026.0999149717,97.769032,0,0,-6.263432,19.461378,0,108, 34.6, -0.8,0,0,1684,1024,1024,1024,100,0,0,0,119.6,-3.2,0,26,3.361,3.359,3.351,0,0,0,14.788,74.48,8026.0999149717,97.769032,31,Sport,
15100,2023-07-20 17:04:37,0,0,97.769032,,,8026.0999149717,80.708664,19.0363594,0,0,4,0,10.348,8026.0999149717,97.769032,0,0,-5.816044,18.119214,0,108.4, 32.7, -1.4,0,0,1412,1024,1024,1024,59,0,0,0,119.7,-3.2,0,26,3.451,3.445,3.443,0,0,0,7.926,74.66,8026.0999149717,97.769032,31,Sport,
15200,2023-07-20 17:04:37,0,0,97.440948,,,8025.7718309717,80.38058,17.336285,0,0,4,0,10.348,8026.0999149717,97.769032,0,0,-5.144962,16.553356,0,108.5, 32.1, -0.8,0,0,1349,1024,1024,1024,49,0,0,0,119.7,-3.2,0,26,3.451,3.445,3.443,0,0,0,7.926,74.66,8025.7718309717,97.440948,31,Sport,
15300,2023-07-20 17:04:37,0,0,97.112864,,,8025.4437469717,80.708664,15.9270128,0,0,4,0,10.348,8026.0999149717,97.769032,0,0,-4.697574,15.211192,0,108.6, 31.7, -0.5,0,0,1076,1024,1024,1024,8,0,0,0,119.7,-3.2,0,26,3.451,3.445,3.443,0,0,0,7.926,74.66,8025.4437469717,97.112864,31,Sport,
15400,2023-07-20 17:04:38,0,0,97.112864,,,8025.4437469717,80.708664,14.4953712,0,0,4,0,10.348,8026.0999149717,97.769032,0,0,-4.250186,13.869028,0,108.5, 31.9, 0.9,0,0,1024,1024,1024,1024,0,0,0,0,119.7,-3.2,0,26,3.451,3.445,3.443,0,0,0,7.926,74.66,8025.4437469717,97.112864,31,Sport,
15500,2023-07-20 17:04:38,0,0,97.112864,,,8025.4437469717,80.38058,13.086099,0,0,4,0,10.348,8026.0999149717,97.769032,0,0,-3.802798,12.526864,0,108.4, 32.9, 1.9,0,0,1024,1024,1024,1024,0,0,0,0,119.7,-3.2,0,26,3.451,3.445,3.443,0,0,0,7.926,74.66,8025.4437469717,97.112864,31,Sport,
15600,2023-07-20 17:04:38,0,0,97.112864,,,8025.4437469717,79.724412,11.6768268,0,0,4,0,10.348,8026.0999149717,97.769032,0,0,-3.35541,11.1847,0,108.9, 31.4, 2.5,0,0,1024,1024,1024,1024,0,0,0,0,119.7,-3.2,0,26,3.451,3.445,3.443,0,0,0,7.926,74.66,8025.4437469717,97.112864,31,Sport,
15700,2023-07-20 17:04:38,0,0,97.112864,,,8025.4437469717,79.724412,10.3346628,0,0,4,0,10.348,8026.0999149717,97.769032,0,0,-3.131716,9.842536,0.223694,109.7, 31.2, 2,0,0,1024,1024,1024,1024,0,0,0,0,119.8,-3.2,0,26,3.451,3.445,3.443,0,0,0,7.926,74.66,8025.4437469717,97.112864,31,Sport,
15800,2023-07-20 17:04:38,0,0,97.112864,,,8025.4437469717,79.396328,8.9030212,0,0,4,0,10.348,8026.0999149717,97.769032,0,0,-2.684328,8.500372,0.223694,109.7, 29.3, 1.7,0,0,1024,1024,1024,1024,0,0,0,0,119.8,-3.2,0,26,3.451,3.445,3.443,0,0,0,7.926,74.66,8025.4437469717,97.112864,31,Sport,
15900,2023-07-20 17:04:38,0,0,97.112864,,,8025.4437469717,76.443572,8.9030212,0,0,4,0,10.348,8026.0999149717,97.769032,0,0,-2.23694,7.381902,0.223694,109.5, 27.4, 1.4,0,0,1024,1024,1024,1024,0,0,0,0,119.7,-3.2,0,26,3.451,3.445,3.443,0,0,0,7.926,74.66,8025.4437469717,97.112864,31,Sport,
16000,2023-07-20 17:04:38,0,0,96.78478,,,8025.1156629717,76.115488,6.3081708,0,0,4,0,10.348,8026.0999149717,97.769032,0,0,-1.789552,6.039738,0,109.3, 26.5, 1.2,0,0,1024,1024,1024,1024,0,0,0,0,119.7,-3.2,0,26,3.451,3.445,3.443,0,0,0,7.926,74.66,8025.1156629717,96.78478,31,Sport,
16100,2023-07-20 17:04:38,0,0,97.112864,,,8025.4437469717,76.443572,5.1673314,0,0,4,0,10.261,8026.0999149717,97.769032,0,0,-1.565858,4.921268,0,109.2, 26.6, 0.7,0,0,1024,1024,1024,1024,0,0,0,0,119.7,-3.2,0,26,3.409,3.402,3.405,0,0,0,9.281,74.66,8025.4437469717,97.112864,31,Sport,
16200,2023-07-20 17:04:38,0,0,97.112864,,,8025.4437469717,76.771656,3.9593838,0,0,4,0,10.261,8026.0999149717,97.769032,0,0,-1.11847,3.802798,0,109, 26.5, 0.6,0,0,1024,1024,1024,1024,0,0,0,0,119.7,-3.2,0,26,3.409,3.402,3.405,0,0,0,9.281,74.66,8025.4437469717,97.112864,31,Sport,
16300,2023-07-20 17:04:38,0,0,97.440948,,,8025.7718309717,77.09974,2.9751302,0,0,4,0,10.261,8026.0999149717,97.769032,0,0,-0.671082,2.908022,0,108.9, 21.5, 0.5,0,0,1583,1024,1024,1024,85,0,0,0,119.7,-3.2,0,26,3.409,3.402,3.405,0,0,0,9.281,74.66,8025.7718309717,97.440948,31,Sport,
16400,2023-07-20 17:04:39,0,0,97.769032,,,8026.0999149717,77.09974,2.2816788,0,0,4,0,10.261,8026.0999149717,97.769032,0,0,-0.447388,2.23694,0,108.7, 15.5, 0.6,0,0,1684,1024,1024,1024,100,0,0,0,119.7,-3.2,0,26,3.409,3.402,3.405,0,0,0,9.281,74.66,8026.0999149717,97.769032,31,Sport,
16500,2023-07-20 17:04:39,0,0,97.769032,,,8026.0999149717,77.755908,1.5882274,0,0,4,0,10.261,8026.0999149717,97.769032,0,0,-0.223694,1.565858,-0.223694,108.7, 11.8, 0.7,0,0,1684,1024,1024,1024,100,0,0,0,119.7,-3.2,0,26,3.409,3.402,3.405,0,0,0,9.281,74.66,8026.0999149717,97.769032,31,Sport,
16600,2023-07-20 17:04:39,0,0,97.769032,,,8026.0999149717,78.412076,1.11847,0,0,4,0,10.261,8026.0999149717,97.769032,0,0,0,1.11847,-0.223694,108.7, 9.1, 1,0,0,1684,1024,1024,1024,100,0,0,0,119.7,-3.2,0,26,3.409,3.402,3.405,0,0,0,9.281,74.66,8026.0999149717,97.769032,31,Sport,
16700,2023-07-20 17:04:39,0,0,97.769032,,,8026.0999149717,79.396328,0.894776,0,0,4,0,10.261,8026.0999149717,97.769032,0,0,0,0.894776,-0.223694,108.7, 7, 1.2,0,0,1684,1024,1024,1024,100,0,0,0,119.7,-3.2,0,26,3.409,3.402,3.405,0,0,0,9.281,74.66,8026.0999149717,97.769032,31,Sport,
16800,2023-07-20 17:04:39,0,0,98.097116,,,8026.4279989717,79.724412,0.671082,0,0,4,0,10.261,8026.4279989717,98.097116,0,0,0,0.671082,0,108.9, 5.8, 1.4,0,0,1684,1024,1024,1024,100,0,0,0,119.8,-3.2,0,26,3.409,3.402,3.405,0,0,0,9.281,74.66,8026.4279989717,98.097116,31,Sport,
16900,2023-07-20 17:04:39,0,0,98.097116,,,8026.4279989717,80.052496,0.447388,0,0,4,0,10.261,8026.4279989717,98.097116,0,0,0,0.447388,0,109, 4.8, 1.3,0,0,1684,1024,1024,1024,100,0,0,0,119.7,-3.2,0,26,3.409,3.402,3.405,0,0,0,9.281,74.66,8026.4279989717,98.097116,31,Sport,
17000,2023-07-20 17:04:39,0,0,98.097116,,,8026.4279989717,80.052496,0.447388,0,0,4,0,10.261,8026.4279989717,98.097116,0,0,0,0.447388,0,109, 4.3, 1.2,0,0,1684,1024,1024,1024,100,0,0,0,119.6,-3.2,0,26,3.409,3.402,3.405,0,0,0,9.281,74.66,8026.4279989717,98.097116,31,Sport,
17100,2023-07-20 17:04:39,0,0,98.4252,,,8026.7560829717,80.052496,0.223694,0,0,4,0,10.215,8026.7560829717,98.4252,0,0,0,0.223694,0,109, 3.6, 1.1,0,0,1684,1024,1024,1024,100,0,0,0,119.8,-3.2,0,26,3.417,3.418,3.419,0,0,0,10.788,74.66,8026.7560829717,98.4252,31,Sport,
17200,2023-07-20 17:04:39,0,0,98.4252,,,8026.7560829717,80.052496,0.223694,0,0,4,0,10.215,8026.7560829717,98.4252,0,0,0,0.223694,0,108.9, 3.4, 0.8,0,0,1684,1024,1024,1024,100,0,0,0,119.7,-3.2,0,26,3.417,3.418,3.419,0,0,0,10.788,74.66,8026.7560829717,98.4252,31,Sport,
17300,2023-07-20 17:04:39,0,0,98.753284,,,8027.0841669717,80.38058,0.223694,0,0,4,0,10.215,8027.0841669717,98.753284,0,0,0,0.223694,0,108.8, 3.2, 1,0,0,1684,1024,1024,1024,100,0,0,0,119.7,-3.2,0,26,3.417,3.418,3.419,0,0,0,10.788,74.66,8027.0841669717,98.753284,31,Sport,
17400,2023-07-20 17:04:39,0,0,98.753284,,,8027.0841669717,80.38058,0.223694,0,0,4,0,10.215,8027.0841669717,98.753284,0,0,0,0.223694,0,108.8, 3.1, 1.3,0,0,1684,1024,1024,1024,100,0,0,0,119.7,-3.2,0,26,3.417,3.418,3.419,0,0,0,10.788,74.66,8027.0841669717,98.753284,31,Sport,
17500,2023-07-20 17:04:40,0,0,99.737536,,,8028.0684189717,80.38058,0.223694,0,0,4,0,10.215,8028.0684189717,99.737536,0,0,0,0.223694,-0.223694,109, 3.4, 1.2,0,0,1684,1024,1024,1024,100,0,0,0,119.7,-3.2,0,26,3.417,3.418,3.419,0,0,0,10.788,74.66,8028.0684189717,99.737536,31,Sport,
17600,2023-07-20 17:04:40,0,0,99.737536,,,8028.0684189717,80.38058,0,0,0,4,0,10.215,8028.0684189717,99.737536,0,0,0,0,0,109, 3.8, 0.9,0,0,1684,1024,1024,1024,100,0,0,0,119.7,-3.2,0,26,3.417,3.418,3.419,0,0,0,10.788,74.66,8028.0684189717,99.737536,31,Sport,
17700,2023-07-20 17:04:40,0,0,100.06562,,,8028.3965029717,80.38058,0,0,0,4,0,10.215,8028.3965029717,100.06562,0,0,0,0,0,108.8, 3.4, 0.4,0,0,1684,1024,1102,1024,100,0,12,0,119.7,-3.2,0,26,3.417,3.418,3.419,0,0,0,10.788,74.66,8028.3965029717,100.06562,31,Sport,
17800,2023-07-20 17:04:40,0,0,100.393704,,,8028.7245869717,80.38058,0,0,0,4,0,10.215,8028.7245869717,100.393704,0,0,0,0,0,108.8, 2.7, 0.2,0,0,1684,1024,1684,1024,100,0,100,0,119.7,-3.2,0,26,3.417,3.418,3.419,0,0,0,10.788,74.66,8028.7245869717,100.393704,31,Sport,
17900,2023-07-20 17:04:40,0,0,100.393704,,,8028.7245869717,80.38058,0,0,0,4,0,10.215,8028.7245869717,100.393704,0,0,0,0,0.223694,108.8, -1.7, 0.1,0,0,1684,1024,1684,1024,100,0,100,0,119.7,-3.2,0,26,3.417,3.418,3.419,0,0,0,10.788,74.66,8028.7245869717,100.393704,31,Sport,"Max altitude reached (Altitude limit: 30 m)"
18000,2023-07-20 17:04:40,0,0,100.393704,,,8028.7245869717,80.38058,0.223694,0,0,4,0,10.215,8028.7245869717,100.393704,0,0,0,0.223694,0.447388,108.6, -20.2, 0.1,0,0,1684,1024,1684,1024,100,0,100,0,119.7,-3.2,0,26,3.417,3.418,3.419,0,0,0,10.788,74.66,8028.7245869717,100.393704,31,Sport,
18100,2023-07-20 17:04:40,0,0,100.393704,,,8028.7245869717,80.38058,1.1408394,0,0,4,0,10.266,8028.7245869717,100.393704,0,0,-0.223694,1.11847,0.671082,108.6, -32.9, 0.3,0,0,1684,1024,1684,1024,100,0,100,0,119.8,-3.2,0,26,3.431,3.434,3.434,0,0,0,9.41,74.84,8028.7245869717,100.393704,31,Sport,
18200,2023-07-20 17:04:40,0,0,100.06562,,,8028.3965029717,80.052496,2.3264176,0,0,4,0,10.266,8028.7245869717,100.393704,0,0,-0.671082,2.23694,0.894776,108.4, -30.3, -0.8,0,0,1684,1024,1684,1024,100,0,100,0,119.7,-3.2,0,26,3.431,3.434,3.434,0,0,0,9.41,74.84,8028.3965029717,100.06562,31,Sport,
18300,2023-07-20 17:04:40,0,0,100.06562,,,8028.3965029717,80.052496,3.7580592,0,0,4,0,10.266,8028.7245869717,100.393704,0,0,-1.11847,3.579104,0.894776,108.6, -28.4, -0.3,0,0,1684,1024,1684,1024,100,0,100,0,119.7,-3.2,0,26,3.431,3.434,3.434,0,0,0,9.41,74.84,8028.3965029717,100.06562,31,Sport,
18400,2023-07-20 17:04:41,0,0,100.06562,,,8028.3965029717,80.052496,4.9436374,0,0,4,0,10.266,8028.7245869717,100.393704,0,0,-1.565858,4.697574,0.671082,108.9, -28.2, 0.1,0,0,1684,1024,1684,1024,100,0,100,0,119.7,-3.2,0,26,3.431,3.434,3.434,0,0,0,9.41,74.84,8028.3965029717,100.06562,31,Sport,
18500,2023-07-20 17:04:41,0,0,100.393704,,,8028.7245869717,80.052496,6.0844768,0,0,4,0,10.266,8028.7245869717,100.393704,0,0,-1.789552,5.816044,0.447388,108.9, -27.8, -0.1,0,0,1684,1024,1684,1024,100,0,100,0,119.7,-3.2,0,26,3.431,3.434,3.434,0,0,0,9.41,74.84,8028.7245869717,100.393704,31,Sport,
18600,2023-07-20 17:04:41,0,0,100.721788,,,8029.0526709717,83.66142,7.2924244,0,0,4,0,10.266,8029.0526709717,100.721788,0,0,-2.23694,6.934514,0.223694,108.8, -26.9, -0.9,0,0,1684,1024,1684,1024,100,0,100,0,119.7,-3.2,0,26,3.431,3.434,3.434,0,0,0,9.41,74.84,8029.0526709717,100.721788,31,Sport,
18700,2023-07-20 17:04:41,0,0,100.721788,,,8029.0526709717,83.66142,7.2924244,0,0,4,0,10.266,8029.0526709717,100.721788,0,0,-2.460634,7.82929,0.223694,108.7, -26.4, 0.3,0,0,1684,1024,1684,1024,100,0,100,0,119.7,-3.2,0,26,3.431,3.434,3.434,0,0,0,9.41,74.84,8029.0526709717,100.721788,31,Sport,
18800,2023-07-20 17:04:41,0,0,100.393704,,,8028.7245869717,83.66142,9.1267152,0,0,4,0,10.266,8029.0526709717,100.721788,0,0,-2.684328,8.724066,0.447388,108.7, -26.6, 0.3,0,0,1652,1024,1212,1024,95,0,28,0,119.7,-3.2,0,26,3.431,3.434,3.434,0,0,0,9.41,74.84,8028.7245869717,100.393704,31,Sport,
18900,2023-07-20 17:04:41,0,0,100.393704,,,8028.7245869717,83.66142,10.0438606,0,0,4,0,10.266,8029.0526709717,100.721788,0,0,-2.908022,9.618842,0.447388,108.6, -27.2, 0,0,0,1024,1024,1024,1024,0,0,0,0,119.7,-3.2,0,26,3.431,3.434,3.434,0,0,0,9.41,74.84,8028.7245869717,100.393704,31,Sport,
19000,2023-07-20 17:04:41,0,0,100.393704,,,8028.7245869717,83.66142,11.0281142,0,0,4,0,10.266,8029.0526709717,100.721788,0,0,-3.35541,10.513618,0.447388,108.6, -25.2, 1.5,0,0,1024,1024,1024,1024,0,0,0,0,119.7,-3.2,0,26,3.431,3.434,3.434,0,0,0,9.41,74.84,8028.7245869717,100.393704,31,Sport,
19100,2023-07-20 17:04:41,0,0,100.393704,,,8028.7245869717,83.66142,11.743935,0,0,4,0,10.172,8029.0526709717,100.721788,0,0,-3.579104,11.1847,0.447388,108.7, -3.2, 3.3,0,0,1024,1024,1024,1024,0,0,0,0,119.7,-3.2,0,26,3.413,3.415,3.416,0,0,0,9.754,74.84,8028.7245869717,100.393704,31,Sport,
19200,2023-07-20 17:04:41,0,0,100.393704,,,8028.7245869717,83.66142,11.3189164,0,0,4,0,10.172,8029.0526709717,100.721788,0,0,-3.579104,10.737312,0.223694,109.6, 24.9, 2.8,0,0,1024,1024,1024,1024,0,0,0,0,119.7,-3.2,0,26,3.413,3.415,3.416,0,0,0,9.754,74.84,8028.7245869717,100.393704,31,Sport,
19300,2023-07-20 17:04:41,0,0,100.721788,,,8029.0526709717,83.66142,10.1109688,0,0,4,0,10.172,8029.0526709717,100.721788,0,0,-3.131716,9.618842,0.447388,109.5, 37.7, -3.6,0,0,1024,1024,1024,1024,0,0,0,0,119.7,-3.2,0,26,3.413,3.415,3.416,0,0,0,9.754,74.84,8029.0526709717,100.721788,31,Sport,
19400,2023-07-20 17:04:42,0,0,100.721788,,,8029.0526709717,83.66142,8.6345884,0,0,4,0,10.172,8029.0526709717,100.721788,0,0,-2.460634,8.276678,0.671082,108.2, 34, -1.2,0,0,1024,1024,1024,1024,0,0,0,0,119.7,-3.2,0,26,3.413,3.415,3.416,0,0,0,9.754,74.84,8029.0526709717,100.721788,31,Sport,
19500,2023-07-20 17:04:42,0,0,100.721788,,,8029.0526709717,69.881892,7.2924244,0,0,4,0,10.172,8029.0526709717,100.721788,0,0,-2.23694,6.934514,0.671082,107.6, 28.4, 3,0,0,1024,1024,1024,1024,0,0,0,0,119.7,-3.2,0,26,3.413,3.415,3.416,0,0,0,9.754,74.84,8029.0526709717,100.721788,31,Sport,
19600,2023-07-20 17:04:42,0,0,100.393704,,,8028.7245869717,70.53806,6.151585,0,0,4,0,10.172,8029.0526709717,100.721788,0,0,-2.013246,5.816044,0.894776,108.7, 25.1, 1.6,0,0,1024,1024,1024,1024,0,0,0,0,119.7,-3.2,0,26,3.413,3.415,3.416,0,0,0,9.754,74.84,8028.7245869717,100.393704,31,Sport,
19700,2023-07-20 17:04:42,0,0,100.06562,,,8028.3965029717,70.866144,4.9436374,0,0,4,0,10.172,8029.0526709717,100.721788,0,0,-1.565858,4.697574,0.894776,109.2, 24.9, 0.4,0,0,1024,1024,1024,1024,0,0,0,0,119.7,-3.2,0,26,3.413,3.415,3.416,0,0,0,9.754,74.84,8028.3965029717,100.06562,31,Sport,
19800,2023-07-20 17:04:42,0,0,100.393704,,,8028.7245869717,70.53806,4.026492,0,0,4,0,10.172,8029.0526709717,100.721788,0,0,-1.342164,3.802798,0.447388,108.7, 23.9, -1.2,0,0,1024,1024,1024,1024,0,0,0,0,119.7,-3.2,0,26,3.413,3.415,3.416,0,0,0,9.754,74.84,8028.7245869717,100.393704,31,Sport,
19900,2023-07-20 17:04:42,0,0,100.393704,,,8028.7245869717,81.692916,3.0422384,0,0,4,0,10.172,8029.0526709717,100.721788,0,0,-0.894776,2.908022,0.447388,108, 19.8, -3.2,0,0,1024,1024,1024,1024,0,0,0,0,119.7,-3.2,0,26,3.413,3.415,3.416,0,0,0,9.754,74.84,8028.7245869717,100.393704,31,Sport,
20000,2023-07-20 17:04:42,0,0,100.393704,,,8028.7245869717,81.036748,2.3264176,0,0,4,0,10.172,8029.0526709717,100.721788,0,0,-0.671082,2.23694,0.447388,107.4, 14.7, -2.7,0,0,1024,1024,1024,1024,0,0,0,0,119.7,-3.2,0,26,3.413,3.415,3.416,0,0,0,9.754,74.84,8028.7245869717,100.393704,31,Sport,
20100,2023-07-20 17:04:42,0,0,100.06562,,,8028.3965029717,81.036748,1.8342908,0,0,4,0,10.269,8029.0526709717,100.721788,0,0,-0.447388,1.789552,0.671082,107.2, 12.2, -0.9,0,0,1024,1024,1024,1024,0,0,0,0,119.7,-3.2,0,26,3.405,3.406,3.406,0,0,0,9.961,75.02,8028.3965029717,100.06562,31,Sport,
20200,2023-07-20 17:04:42,0,0,99.737536,,,8028.0684189717,81.036748,1.3645334,0,0,4,0,10.269,8029.0526709717,100.721788,0,0,-0.223694,1.342164,0.671082,107.5, 11, 1.5,0,0,1024,1024,1024,1024,0,0,0,0,119.7,-3.2,0,26,3.405,3.406,3.406,0,0,0,9.961,75.02,8028.0684189717,99.737536,31,Sport,
20300,2023-07-20 17:04:42,0,0,99.737536,,,8028.0684189717,81.036748,1.1408394,0,0,4,0,10.269,8029.0526709717,100.721788,0,0,-0.223694,1.11847,0.671082,108.4, 10.2, 2.8,0,0,1024,1024,1024,1024,0,0,0,0,119.7,-3.2,0,26,3.405,3.406,3.406,0,0,0,9.961,75.02,8028.0684189717,99.737536,31,Sport,
20400,2023-07-20 17:04:42,0,0,99.737536,,,8028.0684189717,81.364832,1.1408394,0,0,4,0,10.269,8029.0526709717,100.721788,0,0,-0.223694,0.671082,0.447388,109.1, 8.3, -0.4,0,0,1024,1024,1024,1024,0,0,0,0,119.7,-3.2,0,26,3.405,3.406,3.406,0,0,0,9.961,75.02,8028.0684189717,99.737536,31,Sport,
20500,2023-07-20 17:04:43,0,0,99.737536,,,8028.0684189717,81.364832,0.4921268,0,0,4,0,10.269,8029.0526709717,100.721788,0,0,-0.223694,0.447388,0.447388,108.7, 7.2, -1.7,0,0,1024,1024,1024,1024,0,0,0,0,119.7,-3.2,0,26,3.405,3.406,3.406,0,0,0,9.961,75.02,8028.0684189717,99.737536,31,Sport,
20600,2023-07-20 17:04:43,0,0,99.737536,,,8028.0684189717,81.364832,0.3131716,0,0,4,0,10.269,8029.0526709717,100.721788,0,0,-0.223694,0.223694,0.447388,107.9, 5.9, -1.8,0,0,1024,1024,1024,1024,0,0,0,0,119.7,-3.2,0,26,3.405,3.406,3.406,0,0,0,9.961,75.02,8028.0684189717,99.737536,31,Sport,
20700,2023-07-20 17:04:43,0,0,99.737536,,,8028.0684189717,81.364832,0.223694,0,0,4,0,10.269,8029.0526709717,100.721788,0,0,0,0.223694,0.223694,107.4, 5.2, -1.6,0,0,1024,1024,1024,1024,0,0,0,0,119.7,-3.2,0,26,3.405,3.406,3.406,0,0,0,9.961,75.02,8028.0684189717,99.737536,31,Sport,
20800,2023-07-20 17:04:43,0,0,99.737536,,,8028.0684189717,81.364832,0,0,0,4,0,10.269,8029.0526709717,100.721788,0,0,0,0,0.447388,107.4, 4.3, -1.4,0,0,1024,1024,1024,1024,0,0,0,0,119.7,-3.2,0,26,3.405,3.406,3.406,0,0,0,9.961,75.02,8028.0684189717,99.737536,31,Sport,
20900,2023-07-20 17:04:43,0,0,99.737536,,,8028.0684189717,81.036748,0,0,0,4,0,10.269,8029.0526709717,100.721788,0,0,0,0,0.447388,107.4, 3.7, -1.4,0,0,1024,1024,1024,1024,0,0,0,0,119.7,-3.2,0,26,3.405,3.406,3.406,0,0,0,9.961,75.02,8028.0684189717,99.737536,31,Sport,
21000,2023-07-20 17:04:43,0,0,99.409452,,,8027.7403349717,80.708664,0,0,0,4,0,10.269,8029.0526709717,100.721788,0,0,0,0,0.447388,107.5, 2.9, -1.2,0,0,1024,1024,1024,1024,0,0,0,0,119.7,-3.2,0,26,3.405,3.406,3.406,0,0,0,9.961,75.02,8027.7403349717,99.409452,31,Sport,
